City_ID,City,Country,Date,Lat,Lng,Max Temp,Humidity,Cloudiness,Wind Speed,Current Description,Rain inches (last 3 hrs),Snow inches (last 3 hrs)
0,Chuy,UY,2020-02-23 18:32:50,-33.7,-53.46,71.78,59,66,4.61,broken clouds,0.0,0.0
1,Vao,NC,2020-02-23 18:28:52,-22.67,167.48,77.65,76,83,14.32,broken clouds,0.0,0.0
2,Bredasdorp,ZA,2020-02-23 18:32:51,-34.53,20.04,66.2,59,0,12.75,clear sky,0.0,0.0
3,Itarema,BR,2020-02-23 18:32:51,-2.92,-39.92,85.75,69,85,4.65,light rain,0.0,0.0
4,Lebu,CL,2020-02-23 18:32:02,-37.62,-73.65,69.19,57,2,9.35,clear sky,0.0,0.0
5,Te Anau,NZ,2020-02-23 18:33:35,-45.42,167.72,47.43,83,38,4.32,scattered clouds,0.0,0.0
6,Yellowknife,CA,2020-02-23 18:31:38,62.46,-114.35,-8.0,69,40,8.05,scattered clouds,0.0,0.0
7,Puerto Ayora,EC,2020-02-23 18:33:35,-0.74,-90.35,84.2,74,20,12.75,few clouds,0.0,0.0
8,Rikitea,PF,2020-02-23 18:33:35,-23.12,-134.97,78.37,74,2,8.25,light rain,0.0,0.0
9,Camacha,PT,2020-02-23 18:32:20,33.08,-16.33,68.0,72,20,19.46,few clouds,0.0,0.0
10,Biltine,TD,2020-02-23 18:32:53,14.53,20.92,77.99,11,0,11.72,clear sky,0.0,0.0
11,Cayenne,GF,2020-02-23 18:33:36,4.93,-52.33,84.2,70,75,14.99,broken clouds,0.0,0.0
12,Mataura,NZ,2020-02-23 18:32:57,-46.19,168.86,51.01,91,93,3.0,overcast clouds,0.0,0.0
13,Kushima,JP,2020-02-23 18:32:58,31.46,131.23,41.0,65,0,3.49,clear sky,0.0,0.0
14,Tuktoyaktuk,CA,2020-02-23 18:32:58,69.45,-133.04,-5.8,76,90,13.87,light snow,0.0,0.0
15,Severo-Kurilsk,RU,2020-02-23 18:28:15,50.68,156.12,23.5,96,100,37.63,snow,0.0,3.06
16,Vila Franca Do Campo,PT,2020-02-23 18:32:58,37.72,-25.43,60.8,87,20,8.05,few clouds,0.0,0.0
17,Nishihara,JP,2020-02-23 18:32:59,26.18,127.76,62.6,77,20,1.12,few clouds,0.0,0.0
18,Stokmarknes,NO,2020-02-23 18:33:39,68.56,14.91,33.8,94,90,28.86,rain and snow,0.0,0.0
19,San Andres,CO,2020-02-23 18:29:23,12.58,-81.7,84.2,66,40,6.93,scattered clouds,0.0,0.0
20,Punta Arenas,CL,2020-02-23 18:33:39,-53.15,-70.92,57.2,58,75,28.86,light intensity shower rain,0.0,0.0
21,Foso,GH,2020-02-23 18:33:40,5.7,-1.29,85.39,71,100,7.0,overcast clouds,0.0,0.0
22,Marawi,PH,2020-02-23 18:33:06,8.0,124.29,75.0,85,38,5.01,scattered clouds,0.0,0.0
23,Kaitangata,NZ,2020-02-23 18:33:41,-46.28,169.85,57.99,84,99,1.01,overcast clouds,0.0,0.0
24,Poum,NC,2020-02-23 18:33:43,-20.23,164.02,80.62,76,37,22.37,scattered clouds,0.0,0.0
25,Hobart,AU,2020-02-23 18:33:45,-42.88,147.33,57.2,76,99,4.7,overcast clouds,0.0,0.0
26,Bosobolo,CD,2020-02-23 18:33:46,4.18,19.9,87.08,22,96,3.18,overcast clouds,0.0,0.0
27,Escarcega,MX,2020-02-23 18:31:05,18.61,-90.75,90.16,30,0,1.19,clear sky,0.0,0.0
28,Saint-Pierre,RE,2020-02-23 18:33:47,-21.34,55.48,77.0,78,0,3.36,clear sky,0.0,0.0
29,Busselton,AU,2020-02-23 18:31:08,-33.65,115.33,68.0,44,93,15.14,light rain,0.0,0.0
30,Albany,US,2020-02-23 18:33:34,42.6,-73.97,51.01,29,75,4.7,broken clouds,0.0,0.0
31,Port Elizabeth,ZA,2020-02-23 18:33:48,-33.92,25.57,62.6,72,8,3.36,clear sky,0.0,0.0
32,Vaini,TO,2020-02-23 18:33:49,-21.2,-175.2,77.0,100,75,6.93,broken clouds,0.0,0.0
33,Jaguaruana,BR,2020-02-23 18:33:49,-4.83,-37.78,98.6,44,40,5.82,scattered clouds,0.0,0.0
34,Malanje,AO,2020-02-23 18:30:36,-9.54,16.34,66.87,98,100,5.28,moderate rain,0.0,0.0
35,Provideniya,RU,2020-02-23 18:33:49,64.38,-173.3,-9.76,73,0,2.24,clear sky,0.0,0.0
36,Ornskoldsvik,SE,2020-02-23 18:33:50,63.29,18.72,37.4,64,56,9.17,broken clouds,0.0,0.0
37,Alofi,NU,2020-02-23 18:33:36,-19.06,-169.92,80.6,88,100,5.82,light rain,0.0,0.0
38,Atuona,PF,2020-02-23 18:33:50,-9.8,-139.03,81.3,78,20,15.3,light rain,0.0,0.0
39,Najran,SA,2020-02-23 18:33:50,17.49,44.13,78.8,26,35,2.24,scattered clouds,0.0,0.0
40,Cooma,AU,2020-02-23 18:33:51,-36.23,149.13,53.6,93,60,5.82,broken clouds,0.0,0.0
41,San Quintin,MX,2020-02-23 18:31:54,30.48,-115.95,60.87,65,0,17.43,clear sky,0.0,0.0
42,Muisne,EC,2020-02-23 18:33:51,0.6,-80.03,84.2,89,40,4.7,scattered clouds,0.0,0.0
43,Cape Town,ZA,2020-02-23 18:31:38,-33.93,18.42,73.0,49,0,21.92,clear sky,0.0,0.0
44,Winona,US,2020-02-23 18:32:43,43.97,-91.77,46.99,49,1,6.93,clear sky,0.0,0.0
45,Takoradi,GH,2020-02-23 18:33:06,4.88,-1.76,82.76,80,93,7.83,light rain,0.0,0.0
46,Mezen,RU,2020-02-23 18:33:52,65.85,44.24,32.18,91,100,22.84,light snow,0.0,0.13
47,Antalaha,MG,2020-02-23 18:33:52,-14.9,50.28,82.99,75,98,0.78,overcast clouds,0.0,0.0
48,Butaritari,KI,2020-02-23 18:33:53,3.07,172.79,84.7,76,100,17.56,moderate rain,0.0,0.0
49,Deniliquin,AU,2020-02-23 18:33:53,-35.53,144.97,68.9,59,0,6.31,clear sky,0.0,0.0
50,Iquitos,PE,2020-02-23 18:33:55,-3.75,-73.25,42.8,100,75,3.36,broken clouds,0.0,0.0
51,Castro,BR,2020-02-23 18:33:25,-24.79,-50.01,79.45,39,100,1.3,overcast clouds,0.0,0.0
52,Norman Wells,CA,2020-02-23 18:31:07,65.28,-126.83,6.8,77,90,9.17,light snow,0.0,0.0
53,Airai,TL,2020-02-23 18:33:58,-8.93,125.41,66.96,87,74,4.16,broken clouds,0.0,0.0
54,Tomigusuku,JP,2020-02-23 18:33:58,26.18,127.67,62.6,77,20,1.12,few clouds,0.0,0.0
55,Tiksi,RU,2020-02-23 18:31:54,71.69,128.87,-9.99,88,100,7.81,overcast clouds,0.0,0.0
56,Rio Gallegos,AR,2020-02-23 18:31:47,-51.62,-69.22,62.6,36,40,16.11,scattered clouds,0.0,0.0
57,Katsuura,JP,2020-02-23 18:33:59,35.13,140.3,44.6,39,20,10.29,few clouds,0.0,0.0
58,Hirara,JP,2020-02-23 18:33:59,24.8,125.28,67.42,76,88,15.52,overcast clouds,0.0,0.0
59,Namibe,AO,2020-02-23 18:33:59,-15.2,12.15,75.15,79,93,11.72,overcast clouds,0.0,0.0
60,Shingu,JP,2020-02-23 18:34:00,33.73,135.98,46.08,65,0,9.15,clear sky,0.0,0.0
61,Bonga,ET,2020-02-23 18:34:00,7.28,36.23,64.2,70,21,2.59,few clouds,0.0,0.0
62,Kruisfontein,ZA,2020-02-23 18:34:00,-34.0,24.73,58.96,73,9,8.16,clear sky,0.0,0.0
63,Liverpool,GB,2020-02-23 18:29:14,53.41,-2.98,45.0,75,40,16.11,scattered clouds,0.0,0.0
64,Mar Del Plata,AR,2020-02-23 18:34:01,-38.0,-57.56,81.0,53,20,11.41,few clouds,0.0,0.0
65,Ilulissat,GL,2020-02-23 18:33:57,69.22,-51.1,-0.4,49,0,2.24,clear sky,0.0,0.0
66,Avera,US,2020-02-23 18:34:01,33.19,-82.53,61.0,24,1,5.82,clear sky,0.0,0.0
67,Cherskiy,RU,2020-02-23 18:34:02,68.75,161.3,-25.89,91,71,6.55,broken clouds,0.0,0.0
68,Salasu De Sus,RO,2020-02-23 18:34:02,45.52,22.95,39.22,85,93,2.77,overcast clouds,0.0,0.0
69,Cockburn Town,TC,2020-02-23 18:34:03,21.46,-71.14,73.96,74,14,22.06,few clouds,0.0,0.0
70,Pochutla,MX,2020-02-23 18:34:03,15.74,-96.47,91.4,55,40,6.98,scattered clouds,0.0,0.0
71,Nalut,LY,2020-02-23 18:34:08,30.33,10.85,55.78,40,0,8.43,clear sky,0.0,0.0
72,Hithadhoo,MV,2020-02-23 18:33:03,-0.6,73.08,83.26,78,100,14.05,light rain,0.0,0.0
73,Praia,CV,2020-02-23 18:31:19,14.92,-23.51,73.4,60,75,20.8,broken clouds,0.0,0.0
74,Jamestown,US,2020-02-23 18:33:39,42.1,-79.24,46.99,26,1,16.11,clear sky,0.0,0.0
75,Acapulco,MX,2020-02-23 18:34:09,16.86,-99.89,86.0,70,5,8.05,clear sky,0.0,0.0
76,Okhotsk,RU,2020-02-23 18:34:09,59.38,143.3,-14.03,84,0,5.75,clear sky,0.0,0.0
77,Talakan,RU,2020-02-23 18:34:10,50.32,130.37,6.17,90,100,1.45,overcast clouds,0.0,0.0
78,Stykkisholmur,IS,2020-02-23 18:34:10,65.08,-22.73,27.95,91,90,8.34,light snow,0.0,0.56
79,Shenjiamen,CN,2020-02-23 18:34:10,29.96,122.3,54.03,79,0,17.25,clear sky,0.0,0.0
80,Yayva,RU,2020-02-23 18:34:11,59.33,57.26,25.0,75,92,7.0,overcast clouds,0.0,0.0
81,Angren,UZ,2020-02-23 18:34:11,41.02,70.14,39.78,95,100,0.31,moderate rain,0.0,0.0
82,San Luis De Gaceno,CO,2020-02-23 18:34:11,4.82,-73.17,79.25,54,100,2.62,light rain,0.0,0.0
83,Lorengau,PG,2020-02-23 18:34:12,-2.02,147.27,83.43,71,10,6.78,clear sky,0.0,0.0
84,East London,ZA,2020-02-23 18:34:12,-33.02,27.91,66.2,68,20,3.36,few clouds,0.0,0.0
85,Qaanaaq,GL,2020-02-23 18:31:26,77.48,-69.36,-19.57,78,24,5.01,few clouds,0.0,0.0
86,Mahebourg,MU,2020-02-23 18:31:56,-20.41,57.7,77.0,88,75,4.7,broken clouds,0.0,0.0
87,Bocana De Paiwas,NI,2020-02-23 18:34:13,12.79,-85.12,83.25,59,58,11.45,broken clouds,0.0,0.0
88,Georgetown,MY,2020-02-23 18:34:13,5.41,100.34,80.6,83,40,4.16,scattered clouds,0.0,0.0
89,Longyearbyen,SJ,2020-02-23 18:30:14,78.22,15.64,-2.2,64,20,9.17,few clouds,0.0,0.0
90,San Matias,BO,2020-02-23 18:34:15,-16.37,-58.4,70.14,83,100,3.15,light rain,0.0,0.0
91,Aksu,CN,2020-02-23 18:34:18,41.12,80.26,39.38,44,100,5.48,overcast clouds,0.0,0.0
92,Lodja,CD,2020-02-23 18:34:18,-3.48,23.43,74.23,96,97,2.62,light rain,0.0,0.0
93,Kapaa,US,2020-02-23 18:34:18,22.08,-159.32,69.8,82,1,9.17,clear sky,0.0,0.0
94,Saint-Philippe,RE,2020-02-23 18:34:19,-21.36,55.77,77.0,78,0,3.36,clear sky,0.0,0.0
95,Hede,CN,2020-02-23 18:34:19,33.77,120.25,44.15,82,67,15.08,broken clouds,0.0,0.0
96,Guerrero Negro,MX,2020-02-23 18:34:20,27.98,-114.06,63.03,61,100,18.25,overcast clouds,0.0,0.0
97,Atambua,ID,2020-02-23 18:34:20,-9.11,124.89,75.07,86,44,2.13,scattered clouds,0.0,0.0
98,Yeppoon,AU,2020-02-23 18:34:20,-23.13,150.73,73.4,94,75,10.29,broken clouds,0.0,0.0
99,Yulara,AU,2020-02-23 18:34:21,-25.24,130.99,77.0,17,0,6.93,clear sky,0.0,0.0
100,Alta Gracia,AR,2020-02-23 18:34:21,-31.65,-64.43,81.0,53,0,16.11,clear sky,0.0,0.0
101,Labuhan,ID,2020-02-23 18:34:21,-6.88,112.21,75.2,93,89,3.27,light rain,0.0,0.0
102,Mazsalaca,LV,2020-02-23 18:34:21,57.86,25.05,37.99,88,61,5.99,light rain,0.0,0.0
103,Hermanus,ZA,2020-02-23 18:31:57,-34.42,19.23,73.0,74,0,5.99,clear sky,0.0,0.0
104,Fare,PF,2020-02-23 18:34:22,-16.7,-151.02,82.72,70,47,10.8,scattered clouds,0.0,0.0
105,Pacific Grove,US,2020-02-23 18:34:22,36.62,-121.92,57.99,76,90,8.05,light rain,0.25,0.0
106,Sainte-Suzanne,RE,2020-02-23 18:34:22,-20.91,55.61,77.0,88,89,2.24,overcast clouds,0.0,0.0
107,Kintampo,GH,2020-02-23 18:34:23,8.06,-1.73,95.85,19,40,4.45,scattered clouds,0.0,0.0
108,Nanortalik,GL,2020-02-23 18:33:47,60.14,-45.24,26.92,89,100,6.69,light snow,0.0,0.81
109,Bethel,US,2020-02-23 18:34:23,41.37,-73.41,54.0,29,1,10.29,clear sky,0.0,0.0
110,Kodiak,US,2020-02-23 18:34:23,57.79,-152.41,19.4,37,1,28.86,clear sky,0.0,0.0
111,Boyolangu,ID,2020-02-23 18:34:24,-8.12,111.89,73.89,96,86,4.32,overcast clouds,0.0,0.0
112,Arraial Do Cabo,BR,2020-02-23 18:31:56,-22.97,-42.03,80.6,69,75,11.41,broken clouds,0.0,0.0
113,Hasaki,JP,2020-02-23 18:34:28,35.73,140.83,41.0,44,20,3.36,few clouds,0.0,0.0
114,Upernavik,GL,2020-02-23 18:34:28,72.79,-56.15,-16.91,80,0,6.64,clear sky,0.0,0.0
115,Berlevag,NO,2020-02-23 18:34:29,70.86,29.09,28.4,92,75,5.82,light shower snow,0.0,0.0
116,San Policarpo,PH,2020-02-23 18:34:29,12.18,125.51,78.3,86,0,13.78,light rain,0.0,0.0
117,Tual,ID,2020-02-23 18:33:43,-5.67,132.75,82.9,79,82,11.81,light rain,0.0,0.0
118,Kovdor,RU,2020-02-23 18:33:03,67.57,30.48,23.58,90,100,6.69,light snow,0.0,0.25
119,Avarua,CK,2020-02-23 18:34:30,-21.21,-159.78,80.6,94,100,5.82,moderate rain,0.0,0.0
120,Faanui,PF,2020-02-23 18:31:43,-16.48,-151.75,82.67,70,66,10.54,broken clouds,0.0,0.0
121,Saskylakh,RU,2020-02-23 18:31:09,71.92,114.08,6.31,85,100,8.46,overcast clouds,0.0,0.0
122,Barrow,US,2020-02-23 18:34:30,71.29,-156.79,-29.2,81,20,10.29,few clouds,0.0,0.0
123,Port Macquarie,AU,2020-02-23 18:34:31,-31.43,152.92,68.0,94,75,4.7,broken clouds,0.0,0.0
124,Bluff,NZ,2020-02-23 18:34:31,-46.6,168.33,51.01,91,40,3.0,scattered clouds,0.0,0.0
125,Chokurdakh,RU,2020-02-23 18:34:31,70.63,147.92,-22.4,99,96,3.74,overcast clouds,0.0,0.0
126,Catamarca,AR,2020-02-23 18:34:31,-28.47,-65.79,64.27,57,1,6.02,clear sky,0.0,0.0
127,Sochi,RU,2020-02-23 18:34:32,43.6,39.73,42.8,93,90,2.24,overcast clouds,0.0,0.0
128,Saint George,US,2020-02-23 18:32:36,37.1,-113.58,50.0,81,1,4.7,clear sky,0.0,0.0
129,Sun City West,US,2020-02-23 18:34:32,33.66,-112.34,62.01,66,90,6.93,overcast clouds,0.0,0.0
130,Ushuaia,AR,2020-02-23 18:32:16,-54.8,-68.3,51.8,71,75,12.75,shower rain,0.0,0.0
131,Nome,US,2020-02-23 18:34:33,64.5,-165.41,1.4,84,90,11.41,mist,0.0,0.0
132,Tasiilaq,GL,2020-02-23 18:34:33,65.61,-37.64,10.4,72,96,2.24,overcast clouds,0.0,0.0
133,Cabra,ES,2020-02-23 18:34:33,37.47,-4.44,69.8,32,0,1.12,clear sky,0.0,0.0
134,Hyeres,FR,2020-02-23 18:34:34,43.12,6.12,66.2,45,0,16.11,clear sky,0.0,0.0
135,Nikolskoye,RU,2020-02-23 18:31:22,59.7,30.79,37.4,90,75,8.95,broken clouds,0.0,0.0
136,Pevek,RU,2020-02-23 18:34:35,69.7,170.31,-11.27,98,100,1.92,light snow,0.0,0.13
137,Boralday,KZ,2020-02-23 18:34:38,43.36,76.86,33.8,86,90,2.24,mist,0.0,0.0
138,Iqaluit,CA,2020-02-23 18:34:39,63.75,-68.51,-23.01,61,20,12.75,few clouds,0.0,0.0
139,Torbay,CA,2020-02-23 18:34:39,47.67,-52.73,37.0,69,20,24.16,few clouds,0.0,0.0
140,Hilo,US,2020-02-23 18:34:39,19.73,-155.09,70.0,64,40,4.7,scattered clouds,0.0,0.0
141,Orimattila,FI,2020-02-23 18:34:40,60.8,25.73,37.4,80,88,11.41,overcast clouds,0.0,0.0
142,Ribeira Grande,PT,2020-02-23 18:34:40,38.52,-28.7,62.6,67,75,5.82,broken clouds,0.0,0.0
143,Valparaiso,CL,2020-02-23 18:32:24,-33.04,-71.63,66.2,68,20,4.7,few clouds,0.0,0.0
144,Saldanha,ZA,2020-02-23 18:34:40,-33.01,17.94,78.8,34,0,12.75,clear sky,0.0,0.0
145,Isla Vista,US,2020-02-23 18:32:11,34.41,-119.86,62.01,59,1,4.7,clear sky,0.0,0.0
146,Okato,NZ,2020-02-23 18:34:41,-39.2,173.88,51.01,70,0,15.01,clear sky,0.0,0.0
147,Derzhavinsk,KZ,2020-02-23 18:34:41,51.1,66.32,10.99,95,74,5.79,broken clouds,0.0,0.0
148,Bintulu,MY,2020-02-23 18:33:21,3.17,113.03,77.0,94,75,0.85,broken clouds,0.0,0.0
149,Zelenoborsk,RU,2020-02-23 18:34:42,61.47,64.03,27.55,88,99,14.58,overcast clouds,0.0,0.0
150,Santa Rosa,PH,2020-02-23 18:34:42,14.31,121.11,77.0,78,75,5.82,broken clouds,0.0,0.0
151,Bondo,CD,2020-02-23 18:32:15,3.81,23.69,81.97,28,69,2.73,broken clouds,0.0,0.0
152,Hovd,MN,2020-02-23 18:34:43,48.01,91.64,17.64,66,100,1.9,overcast clouds,0.0,0.0
153,Kendari,ID,2020-02-23 18:34:43,-3.94,122.5,75.85,93,100,1.83,light rain,0.0,0.0
154,Esperance,AU,2020-02-23 18:34:43,-33.87,121.9,66.2,88,75,8.05,broken clouds,0.0,0.0
155,Bambanglipuro,ID,2020-02-23 18:34:43,-7.95,110.28,76.17,81,34,2.77,scattered clouds,0.0,0.0
156,Bubaque,GW,2020-02-23 18:34:44,11.28,-15.83,79.77,68,99,20.58,overcast clouds,0.0,0.0
157,Araouane,ML,2020-02-23 18:34:44,18.9,-3.53,89.73,7,41,11.97,scattered clouds,0.0,0.0
158,Lagunas,PE,2020-02-23 18:34:44,-5.23,-75.68,84.22,69,100,4.34,light rain,0.0,0.0
159,Thompson,CA,2020-02-23 18:31:14,55.74,-97.86,14.0,66,90,5.82,overcast clouds,0.0,0.0
160,Dikson,RU,2020-02-23 18:34:49,73.51,80.55,30.27,95,100,27.36,snow,0.0,1.75
161,New Norfolk,AU,2020-02-23 18:32:13,-42.78,147.06,57.2,76,97,4.7,overcast clouds,0.0,0.0
162,Cabo San Lucas,MX,2020-02-23 18:34:49,22.89,-109.91,84.99,44,75,10.29,broken clouds,0.0,0.0
163,Mattawa,US,2020-02-23 18:34:50,46.74,-119.9,57.2,54,90,20.8,light rain,0.89,0.0
164,Port Blair,IN,2020-02-23 18:32:41,11.67,92.75,81.14,75,41,12.1,scattered clouds,0.0,0.0
165,Miraflores,MX,2020-02-23 18:34:50,19.22,-98.81,82.4,33,5,4.7,clear sky,0.0,0.0
166,Adrar,MR,2020-02-23 18:34:51,20.5,-10.07,92.03,8,97,9.62,overcast clouds,0.0,0.0
167,Ancud,CL,2020-02-23 18:34:51,-41.87,-73.82,59.0,72,75,9.17,broken clouds,0.0,0.0
168,Maumere,ID,2020-02-23 18:34:51,-8.62,122.21,77.61,89,78,10.11,broken clouds,0.0,0.0
169,Mackenzie,CA,2020-02-23 18:34:51,55.3,-123.17,15.8,92,20,5.82,few clouds,0.0,0.0
170,Olafsvik,IS,2020-02-23 18:34:52,64.89,-23.71,31.48,74,100,8.81,overcast clouds,0.0,0.0
171,Kodinar,IN,2020-02-23 18:34:52,20.79,70.7,72.99,29,0,8.59,clear sky,0.0,0.0
172,Kununurra,AU,2020-02-23 18:33:38,-15.77,128.73,78.8,83,21,4.7,few clouds,0.0,0.0
173,Fortuna,US,2020-02-23 18:34:52,40.6,-124.16,53.01,76,75,3.24,broken clouds,0.0,0.0
174,Leningradskiy,RU,2020-02-23 18:34:53,69.38,178.42,-12.39,75,100,6.31,overcast clouds,0.0,0.0
175,Dawlatabad,AF,2020-02-23 18:34:53,36.41,64.91,54.48,74,91,1.5,overcast clouds,0.0,0.0
176,Soyo,AO,2020-02-23 18:34:53,-6.13,12.37,84.2,74,20,5.82,few clouds,0.0,0.0
177,Moose Factory,CA,2020-02-23 18:34:54,51.26,-80.61,12.2,85,1,12.75,clear sky,0.0,0.0
178,Dmitriyevka,RU,2020-02-23 18:34:54,54.75,55.33,28.4,79,90,22.37,overcast clouds,0.0,0.0
179,Talnakh,RU,2020-02-23 18:34:54,69.49,88.4,14.0,92,75,29.08,shower snow,0.0,0.0
180,Carnarvon,AU,2020-02-23 18:34:55,-24.87,113.63,75.2,88,40,8.05,scattered clouds,0.0,0.0
181,Isfana,KG,2020-02-23 18:34:58,39.84,69.53,48.2,87,90,13.42,mist,0.0,0.0
182,Imbituba,BR,2020-02-23 18:34:59,-28.24,-48.67,77.0,69,40,11.41,scattered clouds,0.0,0.0
183,Jieznas,LT,2020-02-23 18:34:59,54.6,24.17,39.2,64,90,9.17,overcast clouds,0.0,0.0
184,Campana,AR,2020-02-23 18:34:59,-34.17,-58.96,80.01,47,40,9.17,scattered clouds,0.0,0.0
185,Harnosand,SE,2020-02-23 18:32:50,62.63,17.94,37.4,55,40,8.05,scattered clouds,0.0,0.0
186,Viedma,AR,2020-02-23 18:35:00,-40.81,-63.0,89.35,21,0,20.98,clear sky,0.0,0.0
187,College,US,2020-02-23 18:35:00,64.86,-147.8,-4.0,83,20,0.98,few clouds,0.0,0.0
188,Comodoro Rivadavia,AR,2020-02-23 18:35:00,-45.87,-67.5,68.0,52,26,13.87,scattered clouds,0.0,0.0
189,Elbrus,RU,2020-02-23 18:35:01,43.26,42.64,14.09,75,10,8.57,clear sky,0.0,0.0
190,Rajampet,IN,2020-02-23 18:35:01,14.18,79.17,67.51,93,81,3.76,broken clouds,0.0,0.0
191,Victoria,HK,2020-02-23 18:35:02,22.29,114.16,68.0,63,66,18.34,broken clouds,0.0,0.0
192,Agadir,MA,2020-02-23 18:35:02,30.42,-9.6,89.6,8,0,6.93,clear sky,0.0,0.0
193,Sao Filipe,CV,2020-02-23 18:35:02,14.9,-24.5,68.52,83,100,18.84,overcast clouds,0.0,0.0
194,Kankaanpaa,FI,2020-02-23 18:35:02,61.8,22.42,37.4,74,90,20.8,light intensity shower rain,0.0,0.0
195,Port Alfred,ZA,2020-02-23 18:35:03,-33.59,26.89,62.01,81,52,8.03,broken clouds,0.0,0.0
196,Yerbogachen,RU,2020-02-23 18:35:03,61.28,108.01,12.9,94,93,8.7,overcast clouds,0.0,0.0
197,Bengkulu,ID,2020-02-23 18:35:03,-3.8,102.27,74.64,90,15,4.23,few clouds,0.0,0.0
198,Khatanga,RU,2020-02-23 18:31:40,71.97,102.5,12.67,92,98,15.46,light snow,0.0,0.25
199,Arlit,NE,2020-02-23 18:35:04,18.74,7.39,78.31,12,58,12.71,broken clouds,0.0,0.0
200,Narsaq,GL,2020-02-23 18:35:04,60.92,-46.05,24.8,58,100,5.82,snow,0.0,1.81
201,Svetlogorsk,BY,2020-02-23 18:32:14,52.63,29.73,37.24,73,56,8.97,broken clouds,0.0,0.0
202,Marseille,FR,2020-02-23 18:35:05,43.33,5.5,62.6,66,0,2.24,clear sky,0.0,0.0
203,Mount Gambier,AU,2020-02-23 18:35:06,-37.83,140.77,57.2,93,96,9.17,overcast clouds,0.0,0.0
204,Cantaura,VE,2020-02-23 18:35:09,9.31,-64.36,99.9,26,91,3.18,overcast clouds,0.0,0.0
205,Luderitz,NA,2020-02-23 18:35:09,-26.65,15.16,68.49,71,0,27.65,clear sky,0.0,0.0
206,Nuuk,GL,2020-02-23 18:35:10,64.18,-51.72,19.4,79,100,14.99,light snow,0.0,0.0
207,Churapcha,RU,2020-02-23 18:35:10,62.0,132.43,-8.03,97,98,4.29,overcast clouds,0.0,0.0
208,Tuatapere,NZ,2020-02-23 18:35:10,-46.13,167.68,51.01,91,29,3.0,scattered clouds,0.0,0.0
209,Russell,US,2020-02-23 18:35:10,32.35,-85.2,57.99,28,40,3.36,scattered clouds,0.0,0.0
210,Sitka,US,2020-02-23 18:32:23,57.05,-135.33,33.8,86,90,10.29,light rain,0.76,0.0
211,San Patricio,MX,2020-02-23 18:35:11,19.22,-104.7,84.2,74,5,11.41,clear sky,0.0,0.0
212,Clyde River,CA,2020-02-23 18:35:11,70.47,-68.59,-22.0,74,1,12.75,clear sky,0.0,0.0
213,Ostrovnoy,RU,2020-02-23 18:35:11,68.05,39.51,30.78,94,100,17.78,light snow,0.0,0.63
214,Klaksvik,FO,2020-02-23 18:35:12,62.23,-6.59,37.4,74,80,23.04,light snow,0.0,0.69
215,Warrnambool,AU,2020-02-23 18:35:12,-38.38,142.48,57.0,95,98,10.65,overcast clouds,0.0,0.0
216,Komsomolskiy,UZ,2020-02-23 18:35:12,40.43,71.72,50.0,76,90,4.7,mist,0.0,0.0
217,Canutama,BR,2020-02-23 18:35:13,-6.53,-64.38,92.68,50,93,1.25,overcast clouds,0.0,0.0
218,Marsa Matruh,EG,2020-02-23 18:35:13,31.35,27.25,51.8,76,75,8.05,broken clouds,0.0,0.0
219,Flinders,AU,2020-02-23 18:35:13,-34.58,150.86,69.01,77,90,5.82,overcast clouds,0.0,0.0
220,Sayyan,YE,2020-02-23 18:35:13,15.17,44.32,56.19,21,0,3.71,clear sky,0.0,0.0
221,Touros,BR,2020-02-23 18:35:14,-5.2,-35.46,87.8,62,78,14.99,broken clouds,0.0,0.0
222,Morgan City,US,2020-02-23 18:35:14,29.7,-91.21,69.01,68,1,9.17,clear sky,0.0,0.0
223,Isiro,CD,2020-02-23 18:32:00,2.77,27.62,78.62,49,53,2.66,broken clouds,0.0,0.0
224,Quatre Cocos,MU,2020-02-23 18:35:14,-20.21,57.76,77.0,88,75,4.7,broken clouds,0.0,0.0
225,Laplace,US,2020-02-23 18:35:15,30.07,-90.48,69.01,52,90,11.41,overcast clouds,0.0,0.0
226,Tukrah,LY,2020-02-23 18:35:17,32.53,20.58,54.9,70,10,19.6,light rain,0.0,0.0
227,Muli,MV,2020-02-23 18:35:19,2.92,73.57,83.19,80,78,20.09,light rain,0.0,0.0
228,Saint Anthony,US,2020-02-23 18:35:20,45.02,-93.22,44.6,52,1,16.11,clear sky,0.0,0.0
229,Sao Joao Da Barra,BR,2020-02-23 18:35:20,-21.64,-41.05,78.8,65,90,11.41,overcast clouds,0.0,0.0
230,Nalgonda,IN,2020-02-23 18:35:20,17.05,79.27,71.37,73,26,6.76,scattered clouds,0.0,0.0
231,Sambava,MG,2020-02-23 18:31:57,-14.27,50.17,74.84,99,100,0.83,light rain,0.0,0.0
232,Varkkallai,IN,2020-02-23 18:35:21,8.73,76.71,82.4,74,40,5.82,haze,0.0,0.0
233,Gat,IL,2020-02-23 18:35:21,31.61,34.76,59.0,77,75,3.36,broken clouds,0.0,0.0
234,Hapur,IN,2020-02-23 18:34:58,28.72,77.78,64.4,68,40,3.85,haze,0.0,0.0
235,Ust-Uda,RU,2020-02-23 18:35:22,54.17,103.03,3.42,99,32,2.26,scattered clouds,0.0,0.0
236,Puqi,CN,2020-02-23 18:35:22,29.72,113.88,58.1,81,68,3.04,broken clouds,0.0,0.0
237,Cabedelo,BR,2020-02-23 18:35:22,-6.98,-34.83,87.8,66,41,11.41,scattered clouds,0.0,0.0
238,Seoul,KR,2020-02-23 18:35:23,37.57,126.98,37.4,56,75,1.12,broken clouds,0.0,0.0
239,Mehamn,NO,2020-02-23 18:35:23,71.04,27.85,33.8,92,75,8.05,broken clouds,0.0,0.0
240,Bulungu,CD,2020-02-23 18:35:23,-4.55,18.6,75.96,84,100,4.16,light rain,0.0,0.0
241,Moindou,NC,2020-02-23 18:35:23,-21.69,165.68,71.6,78,75,3.24,broken clouds,0.0,0.0
242,Twin Falls,US,2020-02-23 18:31:24,42.56,-114.46,44.6,45,1,3.36,clear sky,0.0,0.0
243,Xihe,CN,2020-02-23 18:35:24,31.69,113.47,55.62,82,39,10.04,scattered clouds,0.0,0.0
244,Haflong,IN,2020-02-23 18:35:24,25.18,93.03,63.99,67,23,3.18,few clouds,0.0,0.0
245,Lompoc,US,2020-02-23 18:35:25,34.64,-120.46,62.01,71,90,13.87,overcast clouds,0.0,0.0
246,Vasilsursk,RU,2020-02-23 18:35:25,56.13,46.01,31.62,95,100,17.72,light snow,0.0,1.0
247,Zhigansk,RU,2020-02-23 18:35:25,66.77,123.37,-15.09,99,94,9.17,overcast clouds,0.0,0.0
248,Tazovskiy,RU,2020-02-23 18:31:48,67.47,78.7,27.97,90,100,18.1,overcast clouds,0.0,0.0
249,Salalah,OM,2020-02-23 18:35:29,17.02,54.09,77.0,73,0,3.36,clear sky,0.0,0.0
250,Kathmandu,NP,2020-02-23 18:31:34,27.72,85.32,50.0,87,20,2.24,few clouds,0.0,0.0
251,La Macarena,CO,2020-02-23 18:35:30,2.18,-73.78,83.86,75,96,3.02,moderate rain,0.0,0.0
252,Paamiut,GL,2020-02-23 18:32:15,61.99,-49.67,19.11,78,100,10.83,light snow,0.0,0.25
253,Anadyr,RU,2020-02-23 18:35:30,64.75,177.48,-20.0,75,0,2.24,clear sky,0.0,0.0
254,Guilin,CN,2020-02-23 18:35:31,25.28,110.29,55.4,100,40,3.18,mist,0.0,0.0
255,Altay,CN,2020-02-23 18:35:31,47.87,88.12,10.11,88,100,2.53,overcast clouds,0.0,0.0
256,Nemuro,JP,2020-02-23 18:35:31,43.32,145.57,28.53,78,58,22.68,broken clouds,0.0,0.0
257,Faya,SA,2020-02-23 18:35:32,18.39,42.45,66.2,39,72,6.93,broken clouds,0.0,0.0
258,Sable-Sur-Sarthe,FR,2020-02-23 18:35:32,47.84,-0.33,53.6,93,90,11.41,overcast clouds,0.0,0.0
259,Springdale,US,2020-02-23 18:35:32,36.19,-94.13,50.0,93,75,9.17,light rain,0.25,0.0
260,Tura,IN,2020-02-23 18:35:33,25.52,90.22,68.13,48,0,4.05,clear sky,0.0,0.0
261,Tynda,RU,2020-02-23 18:32:03,55.17,124.72,-3.32,97,89,2.71,overcast clouds,0.0,0.0
262,Bamora,IN,2020-02-23 18:35:33,24.06,78.09,64.81,48,0,6.82,clear sky,0.0,0.0
263,Karratha,AU,2020-02-23 18:35:34,-20.74,116.85,81.64,77,7,15.28,clear sky,0.0,0.0
264,Samfya,ZM,2020-02-23 18:35:34,-11.36,29.56,70.77,88,100,2.26,light rain,0.0,0.0
265,Doctor Arroyo,MX,2020-02-23 18:35:34,23.67,-100.18,72.19,35,0,5.35,clear sky,0.0,0.0
266,Rabaul,PG,2020-02-23 18:35:34,-4.2,152.17,83.95,77,40,15.7,scattered clouds,0.0,0.0
267,Palma Del Rio,ES,2020-02-23 18:35:35,37.7,-5.28,71.6,32,0,1.12,clear sky,0.0,0.0
268,Sao Miguel Do Araguaia,BR,2020-02-23 18:35:35,-13.28,-50.16,88.5,72,58,2.15,light rain,0.0,0.0
269,Turukhansk,RU,2020-02-23 18:35:35,65.82,87.98,12.92,94,100,12.12,light snow,0.0,0.75
270,Nouadhibou,MR,2020-02-23 18:35:35,20.93,-17.03,64.4,82,100,13.87,overcast clouds,0.0,0.0
271,Sao Jose Da Coroa Grande,BR,2020-02-23 18:35:37,-8.9,-35.15,82.22,75,13,10.71,few clouds,0.0,0.0
272,Kavieng,PG,2020-02-23 18:35:40,-2.57,150.8,84.34,72,49,11.52,scattered clouds,0.0,0.0
273,Santa Ana,US,2020-02-23 18:32:39,33.75,-117.87,64.0,59,75,3.36,broken clouds,0.0,0.0
274,Kasama,ZM,2020-02-23 18:35:40,-10.21,31.18,67.77,93,90,4.0,moderate rain,0.0,0.0
275,Chino Valley,US,2020-02-23 18:35:41,34.76,-112.45,48.0,75,90,14.99,overcast clouds,0.0,0.0
276,Sept-Iles,CA,2020-02-23 18:31:59,50.2,-66.38,37.0,80,75,4.7,broken clouds,0.0,0.0
277,Lac Du Bonnet,CA,2020-02-23 18:35:41,50.25,-96.06,36.0,75,70,17.0,light snow,0.0,0.69
278,Pavino,RU,2020-02-23 18:35:42,59.11,46.14,30.38,95,100,14.65,snow,0.0,1.69
279,Tessalit,ML,2020-02-23 18:35:42,20.2,1.01,81.7,11,27,7.14,scattered clouds,0.0,0.0
280,Terre Haute,US,2020-02-23 18:35:42,39.47,-87.41,55.0,46,1,8.05,clear sky,0.0,0.0
281,Rudnaya Pristan,RU,2020-02-23 18:35:43,44.36,135.81,18.14,72,100,7.38,overcast clouds,0.0,0.0
282,Novodugino,RU,2020-02-23 18:35:43,55.63,34.28,33.37,96,50,16.75,scattered clouds,0.0,0.0
283,Usinsk,RU,2020-02-23 18:35:43,65.99,57.53,28.51,89,100,29.53,light snow,0.0,0.13
284,Inuvik,CA,2020-02-23 18:35:44,68.35,-133.72,-4.0,76,75,5.82,light snow,0.0,0.0
285,Qasigiannguit,GL,2020-02-23 18:31:47,68.82,-51.19,-0.4,49,0,2.24,clear sky,0.0,0.0
286,Tam Ky,VN,2020-02-23 18:35:44,15.57,108.48,66.2,93,20,1.12,few clouds,0.0,0.0
287,Luebo,CD,2020-02-23 18:35:44,-5.35,21.42,72.5,89,100,2.24,overcast clouds,0.0,0.0
288,Rafaela,AR,2020-02-23 18:32:42,-31.25,-61.49,87.01,30,0,5.01,clear sky,0.0,0.0
289,Behbahan,IR,2020-02-23 18:35:45,30.6,50.24,71.6,59,71,1.25,broken clouds,0.0,0.0
290,Pontes E Lacerda,BR,2020-02-23 18:31:44,-15.23,-59.34,76.03,77,100,4.92,overcast clouds,0.0,0.0
291,Kieta,PG,2020-02-23 18:32:15,-6.22,155.63,81.1,78,81,7.0,moderate rain,0.0,0.0
292,Trinidad,BO,2020-02-23 18:32:39,-14.83,-64.9,80.6,54,90,13.87,overcast clouds,0.0,0.0
293,Marzuq,YE,2020-02-23 18:35:50,14.4,46.47,65.08,56,0,5.95,clear sky,0.0,0.0
294,Manzil Salim,TN,2020-02-23 18:35:50,35.86,8.48,55.4,26,0,3.36,clear sky,0.0,0.0
295,Warri,NG,2020-02-23 18:35:50,5.52,5.75,85.98,69,86,9.48,overcast clouds,0.0,0.0
296,Jibuti,DJ,2020-02-23 18:35:51,11.5,42.5,78.8,74,75,3.36,broken clouds,0.0,0.0
297,Zheleznodorozhnyy,RU,2020-02-23 18:34:45,55.75,38.0,37.0,86,67,8.95,broken clouds,0.0,0.0
298,Acari,PE,2020-02-23 18:35:51,-15.43,-74.62,78.08,59,76,10.8,broken clouds,0.0,0.0
299,Sao Felix Do Xingu,BR,2020-02-23 18:35:52,-6.64,-51.99,84.51,80,100,1.54,moderate rain,0.0,0.0
300,Aksarka,RU,2020-02-23 18:33:05,66.56,67.8,28.45,87,99,24.7,overcast clouds,0.0,0.0
301,Rakiv Lis,UA,2020-02-23 18:35:52,51.62,24.92,38.39,88,100,12.28,overcast clouds,0.0,0.0
302,Hermosa,PH,2020-02-23 18:35:52,14.85,120.48,77.0,83,40,4.7,scattered clouds,0.0,0.0
303,Darhan,MN,2020-02-23 18:35:53,49.49,105.92,12.04,85,100,4.14,overcast clouds,0.0,0.0
304,Shubarshi,KZ,2020-02-23 18:35:53,48.59,57.19,19.65,88,99,12.53,overcast clouds,0.0,0.0
305,Sukhumi,GE,2020-02-23 18:35:53,43.0,41.02,43.97,86,95,2.62,light rain,0.0,0.0
306,Setermoen,NO,2020-02-23 18:35:54,68.86,18.35,35.6,97,75,35.57,shower sleet,0.0,0.0
307,Santa Cruz,BO,2020-02-23 18:32:55,-17.8,-63.17,86.0,40,40,11.41,scattered clouds,0.0,0.0
308,Ambilobe,MG,2020-02-23 18:35:54,-13.2,49.05,78.1,89,100,1.36,overcast clouds,0.0,0.0
309,Daru,PG,2020-02-23 18:35:55,-9.08,143.21,76.6,94,100,4.76,overcast clouds,0.0,0.0
310,Galle,LK,2020-02-23 18:33:26,6.04,80.22,80.83,77,78,21.45,broken clouds,0.0,0.0
311,Changji,CN,2020-02-23 18:35:55,44.02,87.32,32.0,85,75,2.24,broken clouds,0.0,0.0
312,Sile,TR,2020-02-23 18:33:05,41.18,29.61,43.0,70,15,2.24,few clouds,0.0,0.0
313,Volary,CZ,2020-02-23 18:35:56,48.91,13.89,57.0,78,100,3.0,light rain,0.0,0.0
314,Parkersburg,US,2020-02-23 18:35:57,39.27,-81.56,55.0,25,90,14.99,overcast clouds,0.0,0.0
315,San Cristobal,VE,2020-02-23 18:36:00,7.77,-72.22,80.6,65,75,2.24,broken clouds,0.0,0.0
316,Sao Gabriel,BR,2020-02-23 18:36:00,-30.34,-54.32,81.28,32,0,8.19,clear sky,0.0,0.0
317,Shelburne,CA,2020-02-23 18:33:12,44.08,-80.2,46.4,42,40,16.11,scattered clouds,0.0,0.0
318,Vicam,MX,2020-02-23 18:36:01,27.63,-110.28,71.6,37,90,13.87,overcast clouds,0.0,0.0
319,Belyy Yar,RU,2020-02-23 18:36:01,53.6,91.39,12.2,85,9,2.15,clear sky,0.0,0.0
320,Medvedka,RU,2020-02-23 18:36:01,61.16,46.39,29.46,93,100,15.17,light snow,0.0,0.87
321,Aguimes,ES,2020-02-23 18:36:02,27.91,-15.45,80.01,31,55,4.7,haze,0.0,0.0
322,Bereda,ES,2020-02-23 18:36:00,43.27,-7.54,53.01,87,20,3.36,few clouds,0.0,0.0
323,Noormarkku,FI,2020-02-23 18:36:02,61.59,21.87,37.4,74,90,20.8,light intensity shower rain,0.0,0.0
324,Lavrentiya,RU,2020-02-23 18:36:02,65.58,-171.0,-9.58,77,16,5.1,few clouds,0.0,0.0
325,Pisco,PE,2020-02-23 18:36:03,-13.7,-76.22,78.01,30,40,10.29,scattered clouds,0.0,0.0
326,Suntar,RU,2020-02-23 18:36:03,62.14,117.63,-7.67,97,66,4.76,broken clouds,0.0,0.0
327,Beringovskiy,RU,2020-02-23 18:36:03,63.05,179.32,-13.83,87,17,2.01,few clouds,0.0,0.0
328,Nova Cruz,BR,2020-02-23 18:36:04,-6.48,-35.43,87.8,62,46,14.99,scattered clouds,0.0,0.0
329,Grand Gaube,MU,2020-02-23 18:31:36,-20.01,57.66,77.0,88,75,4.7,broken clouds,0.0,0.0
330,Buala,SB,2020-02-23 18:36:04,-8.14,159.59,80.01,84,19,5.95,light rain,0.0,0.0
331,Porto Belo,BR,2020-02-23 18:36:04,-27.16,-48.55,78.01,23,75,9.17,broken clouds,0.0,0.0
332,Motygino,RU,2020-02-23 18:36:05,58.18,94.76,18.57,96,100,2.42,overcast clouds,0.0,0.0
333,Badnawar,IN,2020-02-23 18:36:05,23.02,75.22,66.2,72,20,6.93,haze,0.0,0.0
334,Mokhsogollokh,RU,2020-02-23 18:36:05,61.47,128.92,-7.62,95,95,3.24,overcast clouds,0.0,0.0
335,Xuddur,SO,2020-02-23 18:36:06,4.12,43.89,80.11,24,67,11.23,broken clouds,0.0,0.0
336,Grand-Santi,GF,2020-02-23 18:36:06,4.25,-54.38,93.58,44,78,4.0,light rain,0.0,0.0
337,Marsh Harbour,BS,2020-02-23 18:36:08,26.54,-77.06,67.98,65,79,17.81,light rain,0.0,0.0
338,Alice Springs,AU,2020-02-23 18:35:28,-23.7,133.88,71.6,30,25,6.93,scattered clouds,0.0,0.0
339,Honiara,SB,2020-02-23 18:36:11,-9.43,159.95,77.0,94,20,2.24,few clouds,0.0,0.0
340,Hamilton,US,2020-02-23 18:31:24,39.18,-84.53,50.0,39,90,9.17,overcast clouds,0.0,0.0
341,Aklavik,CA,2020-02-23 18:36:11,68.22,-135.01,-4.0,76,75,6.93,broken clouds,0.0,0.0
342,Raudeberg,NO,2020-02-23 18:36:11,61.99,5.14,35.6,71,75,20.8,light rain,0.51,0.0
343,Mendeleyevsk,RU,2020-02-23 18:36:12,55.91,52.29,28.4,79,40,17.9,shower snow,0.0,0.0
344,Hami,CN,2020-02-23 18:33:29,42.8,93.45,29.95,56,53,1.68,broken clouds,0.0,0.0
345,Pindwara,IN,2020-02-23 18:33:08,24.8,73.07,59.81,50,0,2.51,clear sky,0.0,0.0
346,Mbanza-Ngungu,CD,2020-02-23 18:36:12,-5.25,14.87,74.52,87,100,7.81,light rain,0.0,0.0
347,Samdrup Jongkhar,BT,2020-02-23 18:36:13,26.92,91.62,51.24,64,27,4.7,scattered clouds,0.0,0.0
348,Margate,GB,2020-02-23 18:32:30,51.38,1.39,48.99,72,20,10.29,few clouds,0.0,0.0
349,Lewisporte,CA,2020-02-23 18:36:13,49.25,-55.05,35.6,55,40,20.8,scattered clouds,0.0,0.0
350,Beloha,MG,2020-02-23 18:36:14,-25.17,45.05,77.16,87,53,1.74,light rain,0.0,0.0
351,Kloulklubed,PW,2020-02-23 18:36:14,7.04,134.26,78.8,88,75,11.41,broken clouds,0.0,0.0
352,Illertissen,DE,2020-02-23 18:36:14,48.22,10.1,57.99,50,100,33.33,overcast clouds,0.0,0.0
353,Beaufort,MY,2020-02-23 18:36:15,5.35,115.75,78.8,88,75,10.29,broken clouds,0.0,0.0
354,Puerto Princesa,PH,2020-02-23 18:36:15,9.74,118.74,77.0,83,40,6.93,scattered clouds,0.0,0.0
355,Pradera,CO,2020-02-23 18:36:15,3.42,-76.24,86.0,51,75,2.24,haze,0.0,0.0
356,Cairns,AU,2020-02-23 18:31:18,-16.92,145.77,79.0,94,75,6.93,moderate rain,0.89,0.0
357,Port Lincoln,AU,2020-02-23 18:36:16,-34.73,135.87,66.18,78,79,4.99,broken clouds,0.0,0.0
358,Redlands,US,2020-02-23 18:31:40,34.06,-117.18,66.2,76,75,5.61,broken clouds,0.0,0.0
359,Geraldton,AU,2020-02-23 18:36:16,-28.77,114.6,73.4,88,0,2.24,clear sky,0.0,0.0
360,Tateyama,JP,2020-02-23 18:36:17,34.98,139.87,44.6,39,20,10.29,few clouds,0.0,0.0
361,Honnali,IN,2020-02-23 18:36:19,14.25,75.67,70.7,35,73,5.48,broken clouds,0.0,0.0
362,San Pedro Buenavista,MX,2020-02-23 18:36:21,16.08,-93.12,84.2,45,20,9.17,few clouds,0.0,0.0
363,Yichang,CN,2020-02-23 18:36:21,30.71,111.28,54.66,89,24,2.17,few clouds,0.0,0.0
364,Krasnyy Chikoy,RU,2020-02-23 18:36:21,50.36,108.75,2.08,97,98,0.63,overcast clouds,0.0,0.0
365,Mattru,SL,2020-02-23 18:36:22,7.62,-11.83,87.3,62,37,11.21,scattered clouds,0.0,0.0
366,Namatanai,PG,2020-02-23 18:36:22,-3.67,152.43,83.73,73,55,10.02,broken clouds,0.0,0.0
367,Haapiti,PF,2020-02-23 18:36:22,-17.57,-149.87,84.2,70,20,2.24,few clouds,0.0,0.0
368,Ukiah,US,2020-02-23 18:31:39,39.15,-123.21,59.0,58,1,4.76,clear sky,0.0,0.0
369,Wanxian,CN,2020-02-23 18:36:23,30.8,108.39,53.35,79,100,1.57,overcast clouds,0.0,0.0
370,Arona,ES,2020-02-23 18:36:23,28.1,-16.68,75.2,29,90,13.87,haze,0.0,0.0
371,Ponta Do Sol,PT,2020-02-23 18:36:23,32.67,-17.1,70.0,52,20,18.34,few clouds,0.0,0.0
372,Anamur,TR,2020-02-23 18:36:24,36.08,32.84,50.0,93,40,5.82,scattered clouds,0.0,0.0
373,Sao Geraldo Do Araguaia,BR,2020-02-23 18:36:24,-6.4,-48.55,83.88,73,42,6.8,moderate rain,0.0,0.0
374,Constitucion,CL,2020-02-23 18:36:24,-35.33,-72.42,64.58,70,26,6.02,scattered clouds,0.0,0.0
375,Grindavik,IS,2020-02-23 18:33:14,63.84,-22.43,33.8,64,75,13.87,broken clouds,0.0,0.0
376,Sorland,NO,2020-02-23 18:36:25,67.67,12.69,33.8,86,90,44.96,light shower snow,0.0,0.0
377,Prince Rupert,CA,2020-02-23 18:36:25,54.32,-130.32,37.4,74,90,2.24,light rain,0.0,0.0
378,La Linea,AR,2020-02-23 18:36:25,-27.62,-55.04,84.0,55,100,1.99,overcast clouds,0.0,0.0
379,Sinazongwe,ZM,2020-02-23 18:36:26,-17.26,27.46,81.84,77,86,5.48,light rain,0.0,0.0
380,Sumbuya,SL,2020-02-23 18:36:26,7.65,-11.96,87.3,62,37,11.21,scattered clouds,0.0,0.0
381,Chapais,CA,2020-02-23 18:33:05,49.78,-74.85,35.6,64,1,6.93,clear sky,0.0,0.0
382,Lagoa,PT,2020-02-23 18:36:27,39.05,-27.98,60.24,78,15,11.54,few clouds,0.0,0.0
383,Whyalla,AU,2020-02-23 18:36:29,-33.03,137.58,68.0,72,83,5.82,broken clouds,0.0,0.0
384,Punta De Piedra,VE,2020-02-23 18:36:31,7.62,-71.49,87.04,50,97,4.99,overcast clouds,0.0,0.0
385,San Antonio,US,2020-02-23 18:33:08,29.42,-98.49,71.6,68,90,13.87,overcast clouds,0.0,0.0
386,Pitimbu,BR,2020-02-23 18:36:32,-7.47,-34.81,87.8,66,43,11.41,scattered clouds,0.0,0.0
387,Moron,AR,2020-02-23 18:36:32,-34.65,-58.62,80.01,47,75,5.82,broken clouds,0.0,0.0
388,Kiama,AU,2020-02-23 18:36:32,-34.68,150.87,69.01,77,90,5.82,overcast clouds,0.0,0.0
389,Yar-Sale,RU,2020-02-23 18:33:05,66.83,70.83,30.34,85,100,24.94,overcast clouds,0.0,0.0
390,Massaguet,TD,2020-02-23 18:36:33,12.48,15.44,86.0,11,0,8.05,clear sky,0.0,0.0
391,Mogoytuy,RU,2020-02-23 18:36:33,51.28,114.92,7.11,81,0,8.93,clear sky,0.0,0.0
392,Bardiyah,LY,2020-02-23 18:36:33,31.76,25.09,55.33,66,37,17.4,light rain,0.0,0.0
393,Energetik,RU,2020-02-23 18:36:33,51.74,58.79,21.63,92,100,10.65,overcast clouds,0.0,0.0
394,Divnomorskoye,RU,2020-02-23 18:36:34,44.5,38.14,44.91,80,100,23.6,light rain,0.0,0.0
395,Lloydminster,CA,2020-02-23 18:34:14,53.28,-110.0,21.2,57,20,11.41,few clouds,0.0,0.0
396,Hualmay,PE,2020-02-23 18:36:34,-11.1,-77.61,81.93,50,34,10.89,scattered clouds,0.0,0.0
397,Diapaga,BF,2020-02-23 18:36:35,12.07,1.79,91.31,10,0,7.65,clear sky,0.0,0.0
398,Rio Claro,BR,2020-02-23 18:36:35,-22.41,-47.56,82.4,58,75,4.7,broken clouds,0.0,0.0
399,Port-Cartier,CA,2020-02-23 18:36:35,50.03,-66.87,37.0,80,75,4.7,broken clouds,0.0,0.0
400,Palmer,US,2020-02-23 18:36:35,42.16,-72.33,54.0,27,20,11.41,few clouds,0.0,0.0
401,Nyurba,RU,2020-02-23 18:36:36,63.28,118.33,-9.81,98,59,3.67,broken clouds,0.0,0.0
402,Halifax,CA,2020-02-23 18:32:52,44.65,-63.57,46.99,52,20,13.87,few clouds,0.0,0.0
403,Bellavista,PE,2020-02-23 18:36:36,-7.06,-76.59,62.6,100,40,4.7,scattered clouds,0.0,0.0
404,Gambela,ET,2020-02-23 18:36:36,8.25,34.58,85.6,22,46,2.86,scattered clouds,0.0,0.0
405,Palasbari,IN,2020-02-23 18:36:37,26.14,91.55,68.0,88,40,3.44,mist,0.0,0.0
406,Neiafu,TO,2020-02-23 18:36:41,-18.65,-173.98,78.8,94,40,4.7,scattered clouds,0.0,0.0
407,Juruti,BR,2020-02-23 18:36:41,-2.15,-56.09,88.34,63,98,4.23,light rain,0.0,0.0
408,Deputatskiy,RU,2020-02-23 18:36:42,69.3,139.9,-21.32,96,31,3.2,scattered clouds,0.0,0.0
409,Pecos,US,2020-02-23 18:36:42,31.42,-103.49,59.0,54,1,20.29,clear sky,0.0,0.0
410,Sioux Lookout,CA,2020-02-23 18:36:42,50.1,-91.92,33.8,93,90,8.05,light snow,0.0,0.0
411,Satna,IN,2020-02-23 18:36:42,24.58,80.83,66.74,53,21,3.91,few clouds,0.0,0.0
412,Tulln,AT,2020-02-23 18:31:47,48.33,16.06,64.99,55,95,21.92,overcast clouds,0.0,0.0
413,Henties Bay,NA,2020-02-23 18:36:43,-22.12,14.28,64.0,91,0,5.01,clear sky,0.0,0.0
414,Solnechnyy,RU,2020-02-23 18:36:43,50.72,136.63,1.42,89,24,1.3,few clouds,0.0,0.0
415,Ossora,RU,2020-02-23 18:36:43,59.24,163.07,-1.91,83,100,6.15,overcast clouds,0.0,0.0
416,Impfondo,CG,2020-02-23 18:36:44,1.64,18.07,79.11,72,91,2.89,overcast clouds,0.0,0.0
417,Oranjemund,NA,2020-02-23 18:36:44,-28.55,16.43,74.73,46,0,16.89,clear sky,0.0,0.0
418,Zyryanka,RU,2020-02-23 18:36:44,65.75,150.85,-11.97,98,100,1.23,overcast clouds,0.0,0.0
419,Wagar,SD,2020-02-23 18:36:44,16.15,36.2,75.76,48,34,13.73,scattered clouds,0.0,0.0
420,Manggar,ID,2020-02-23 18:33:27,-2.88,108.27,82.0,80,3,12.59,light rain,0.0,0.0
421,Am Timan,TD,2020-02-23 18:36:45,11.03,20.28,86.27,12,0,5.73,clear sky,0.0,0.0
422,Phek,IN,2020-02-23 18:36:46,25.67,94.5,48.4,91,11,1.1,few clouds,0.0,0.0
423,Kisanga,TZ,2020-02-23 18:36:46,-7.44,37.7,75.67,93,100,3.65,light rain,0.0,0.0
424,Tiznit,MA,2020-02-23 18:36:46,29.58,-9.5,71.94,13,0,16.6,clear sky,0.0,0.0
425,Bambous Virieux,MU,2020-02-23 18:36:46,-20.34,57.76,77.0,88,75,4.7,broken clouds,0.0,0.0
426,Ariquemes,BR,2020-02-23 18:36:01,-9.91,-63.04,68.85,98,100,0.94,light rain,0.0,0.0
427,Dong Hoi,VN,2020-02-23 18:33:21,17.48,106.6,63.14,92,0,1.54,clear sky,0.0,0.0
428,Oum Hadjer,TD,2020-02-23 18:36:49,13.3,19.7,80.98,10,0,12.66,clear sky,0.0,0.0
429,Acarau,BR,2020-02-23 18:36:51,-2.89,-40.12,85.75,69,85,4.65,light rain,0.0,0.0
430,Portland,US,2020-02-23 18:36:52,45.52,-122.68,48.99,66,75,20.8,light rain,0.3,0.0
431,Chabahar,IR,2020-02-23 18:36:52,25.29,60.64,71.01,75,0,5.64,clear sky,0.0,0.0
432,Port Moresby,PG,2020-02-23 18:36:43,-9.44,147.18,75.2,100,90,5.82,overcast clouds,0.0,0.0
433,Manta,EC,2020-02-23 18:36:52,-0.95,-80.73,84.2,74,40,6.93,scattered clouds,0.0,0.0
434,Baringo,KE,2020-02-23 18:36:53,0.47,35.97,77.72,49,31,3.78,scattered clouds,0.0,0.0
435,Kharp,RU,2020-02-23 18:36:53,66.8,65.81,22.28,96,96,15.14,overcast clouds,0.0,0.0
436,Pandamatenga,BW,2020-02-23 18:36:53,-18.53,25.63,80.6,69,75,4.7,broken clouds,0.0,0.0
437,Ust-Omchug,RU,2020-02-23 18:34:05,61.15,149.63,-23.64,100,100,2.62,overcast clouds,0.0,0.0
438,Soe,ID,2020-02-23 18:36:54,-9.86,124.28,75.88,89,58,3.4,broken clouds,0.0,0.0
439,Cidreira,BR,2020-02-23 18:36:54,-30.18,-50.21,71.91,62,1,12.26,clear sky,0.0,0.0
440,La Ronge,CA,2020-02-23 18:36:54,55.1,-105.28,28.4,58,20,8.05,few clouds,0.0,0.0
441,Wuwei,CN,2020-02-23 18:36:55,37.93,102.64,33.08,38,89,0.58,overcast clouds,0.0,0.0
442,Zherdevka,RU,2020-02-23 18:36:55,51.85,41.46,32.13,98,100,14.23,snow,0.0,1.75
443,Rey Bouba,CM,2020-02-23 18:36:55,8.67,14.18,86.7,10,0,2.95,clear sky,0.0,0.0
444,Texarkana,US,2020-02-23 18:34:24,33.43,-94.05,55.0,71,90,8.05,overcast clouds,0.0,0.0
445,Nizhniy Odes,RU,2020-02-23 18:36:56,63.64,54.86,26.6,89,100,16.37,light snow,0.0,0.19
446,Bull Savanna,JM,2020-02-23 18:36:56,17.89,-77.59,79.86,62,20,4.41,light rain,0.0,0.0
447,Aksum,ET,2020-02-23 18:36:56,14.12,38.72,64.78,53,0,6.71,clear sky,0.0,0.0
448,Keti Bandar,PK,2020-02-23 18:32:20,24.14,67.45,73.2,60,0,10.4,clear sky,0.0,0.0
449,Smithers,CA,2020-02-23 18:32:42,54.78,-127.17,23.0,73,90,3.91,overcast clouds,0.0,0.0
450,Balkanabat,TM,2020-02-23 18:36:57,39.51,54.37,49.48,67,0,0.98,clear sky,0.0,0.0
451,Usvyaty,RU,2020-02-23 18:37:02,55.75,30.75,35.4,81,99,11.97,overcast clouds,0.0,0.0
452,Nivala,FI,2020-02-23 18:37:03,63.92,25.0,30.99,90,86,7.0,overcast clouds,0.0,0.0
453,Roald,NO,2020-02-23 18:35:40,62.58,6.13,35.6,74,75,9.17,shower rain,0.0,0.0
454,Waterloo,CA,2020-02-23 18:37:03,43.47,-80.52,46.0,52,1,14.99,clear sky,0.0,0.0
455,Oksbol,DK,2020-02-23 18:37:03,55.63,8.29,42.01,75,100,16.11,light rain,0.0,0.0
456,Hofn,IS,2020-02-23 18:37:04,64.25,-15.21,33.8,47,20,18.34,few clouds,0.0,0.0
457,Xichang,CN,2020-02-23 18:37:04,27.9,102.26,38.62,80,1,6.51,clear sky,0.0,0.0
458,Roberval,CA,2020-02-23 18:37:04,48.52,-72.23,36.0,59,75,10.29,broken clouds,0.0,0.0
459,Piacabucu,BR,2020-02-23 18:37:04,-10.41,-36.43,85.37,69,9,10.94,light rain,0.0,0.0
460,Teguldet,RU,2020-02-23 18:37:05,57.31,88.17,14.04,97,94,2.98,overcast clouds,0.0,0.0
461,Camopi,GF,2020-02-23 18:37:05,3.17,-52.32,86.97,63,52,5.75,light rain,0.0,0.0
462,Razdolnoye,RU,2020-02-23 18:37:05,43.55,131.92,26.6,68,100,2.24,overcast clouds,0.0,0.0
463,Mopti,ML,2020-02-23 18:37:05,14.67,-4.0,96.8,6,21,18.34,few clouds,0.0,0.0
464,Tadine,NC,2020-02-23 18:37:06,-21.55,167.88,75.02,81,41,7.16,light rain,0.0,0.0
465,Peniche,PT,2020-02-23 18:37:06,39.36,-9.38,70.0,52,0,2.24,clear sky,0.0,0.0
466,Chichigalpa,NI,2020-02-23 18:37:06,12.58,-87.03,93.2,36,40,9.17,scattered clouds,0.0,0.0
467,Shache,CN,2020-02-23 18:33:35,38.42,77.24,45.99,26,55,5.48,broken clouds,0.0,0.0
468,Dangtu,CN,2020-02-23 18:37:07,31.57,118.49,50.0,76,68,6.71,broken clouds,0.0,0.0
469,Mamali,PH,2020-02-23 18:37:07,6.78,124.64,73.63,80,89,0.76,overcast clouds,0.0,0.0
470,Gamba,GA,2020-02-23 18:37:08,-2.65,10.0,79.97,85,81,5.17,light rain,0.0,0.0
471,Santo Antonio Do Ica,BR,2020-02-23 18:37:12,-3.1,-67.94,75.13,95,100,1.95,light rain,0.0,0.0
472,Pangoa,PE,2020-02-23 18:37:12,-12.12,-73.0,69.62,99,100,1.39,light rain,0.0,0.0
473,Vitoria Do Mearim,BR,2020-02-23 18:37:12,-3.46,-44.87,82.24,72,100,2.66,overcast clouds,0.0,0.0
474,Flin Flon,CA,2020-02-23 18:37:12,54.77,-101.86,30.2,74,90,8.05,overcast clouds,0.0,0.0
475,Deming,US,2020-02-23 18:37:13,32.27,-107.76,53.6,40,20,20.8,few clouds,0.0,0.0
476,Athabasca,CA,2020-02-23 18:37:13,54.72,-113.29,19.8,83,0,6.8,clear sky,0.0,0.0
477,Capelinha,BR,2020-02-23 18:37:14,-17.69,-42.52,75.69,90,71,5.64,moderate rain,0.0,0.0
478,Shiringushi,RU,2020-02-23 18:37:14,53.85,42.77,31.26,94,100,15.75,light snow,0.0,0.56
479,Thohoyandou,ZA,2020-02-23 18:37:14,-22.95,30.48,65.7,81,100,6.38,light rain,0.0,0.0
480,Benalla,AU,2020-02-23 18:37:15,-36.55,145.98,71.01,83,90,3.36,overcast clouds,0.0,0.0
481,Weligama,LK,2020-02-23 18:37:15,5.97,80.42,75.51,87,94,10.89,overcast clouds,0.0,0.0
482,Shitanjing,CN,2020-02-23 18:37:15,39.23,106.34,41.04,37,99,4.29,overcast clouds,0.0,0.0
483,Lasa,IT,2020-02-23 18:37:16,46.62,10.7,50.0,61,40,5.82,scattered clouds,0.0,0.0
484,Jacqueville,CI,2020-02-23 18:37:16,5.21,-4.41,86.0,84,59,9.17,broken clouds,0.0,0.0
485,Tecoanapa,MX,2020-02-23 18:37:16,16.52,-98.75,92.88,34,0,8.63,clear sky,0.0,0.0
486,Kandrian,PG,2020-02-23 18:33:00,-6.22,149.55,75.18,94,34,4.52,light rain,0.0,0.0
487,Laguna,US,2020-02-23 18:33:54,38.42,-121.42,60.01,76,75,10.29,broken clouds,0.0,0.0
488,Kalyazin,RU,2020-02-23 18:37:17,57.24,37.84,31.1,88,73,10.09,broken clouds,0.0,0.0
489,Bathsheba,BB,2020-02-23 18:37:18,13.22,-59.52,84.2,70,40,17.22,shower rain,0.0,0.0
490,Qaqortoq,GL,2020-02-23 18:37:22,60.72,-46.03,24.8,58,100,5.82,light snow,0.0,1.0
491,Kampot,KH,2020-02-23 18:37:22,10.62,104.18,80.6,65,20,1.12,few clouds,0.0,0.0
492,Isangel,VU,2020-02-23 18:37:22,-19.55,169.27,69.8,94,20,13.98,few clouds,0.0,0.0
493,Nefteyugansk,RU,2020-02-23 18:37:23,61.1,72.6,23.0,73,100,11.18,overcast clouds,0.0,0.0
494,Souillac,MU,2020-02-23 18:37:23,-20.52,57.52,77.0,88,75,4.7,broken clouds,0.0,0.0
495,Tanete,ID,2020-02-23 18:37:23,-3.94,119.78,76.3,92,95,0.94,overcast clouds,0.0,0.0
496,Fonte Boa,BR,2020-02-23 18:37:24,-2.5,-66.27,80.15,87,96,3.6,moderate rain,0.0,0.0
497,Road Town,VG,2020-02-23 18:37:24,18.42,-64.62,82.4,65,20,8.05,few clouds,0.0,0.0
498,Asau,RO,2020-02-23 18:37:24,46.43,26.4,46.4,61,100,10.29,overcast clouds,0.0,0.0
499,Hokitika,NZ,2020-02-23 18:37:24,-42.72,170.97,57.11,84,35,8.46,scattered clouds,0.0,0.0
500,Inhambane,MZ,2020-02-23 18:37:25,-23.86,35.38,77.0,94,75,16.11,moderate rain,0.0,0.0
501,Waingapu,ID,2020-02-23 18:37:25,-9.66,120.26,83.37,77,99,17.98,overcast clouds,0.0,0.0
502,Zdvinsk,RU,2020-02-23 18:37:25,54.7,78.66,11.61,97,92,2.01,overcast clouds,0.0,0.0
503,Makakilo City,US,2020-02-23 18:32:45,21.35,-158.09,75.2,100,1,0.45,clear sky,0.0,0.0
504,Serenje,ZM,2020-02-23 18:37:26,-13.23,30.24,69.53,93,100,1.01,light rain,0.0,0.0
505,Nara,JP,2020-02-23 18:37:26,34.69,135.8,42.8,75,6,4.7,clear sky,0.0,0.0
506,Iskilip,TR,2020-02-23 18:37:26,40.74,34.47,39.9,75,11,3.11,few clouds,0.0,0.0
507,Kanniyakumari,IN,2020-02-23 18:37:27,8.08,77.57,81.12,79,84,29.24,broken clouds,0.0,0.0
508,Havre-Saint-Pierre,CA,2020-02-23 18:37:27,50.23,-63.6,32.0,89,90,12.75,overcast clouds,0.0,0.0
509,Zonguldak,TR,2020-02-23 18:37:27,41.25,31.83,34.41,91,0,3.47,clear sky,0.0,0.0
510,Westport,US,2020-02-23 18:37:27,41.14,-73.36,54.0,39,1,13.87,clear sky,0.0,0.0
511,Thinadhoo,MV,2020-02-23 18:37:28,0.53,72.93,83.16,80,90,15.12,light rain,0.0,0.0
512,Baudh,IN,2020-02-23 18:37:29,20.84,84.32,70.29,44,0,5.5,clear sky,0.0,0.0
513,Tlatlauquitepec,MX,2020-02-23 18:37:32,19.85,-97.48,69.35,69,7,5.77,clear sky,0.0,0.0
514,Teguise,ES,2020-02-23 18:33:54,29.06,-13.56,73.4,53,58,21.92,haze,0.0,0.0
515,Talcahuano,CL,2020-02-23 18:37:33,-36.72,-73.12,62.6,77,90,8.05,overcast clouds,0.0,0.0
516,Mackay,AU,2020-02-23 18:37:33,-21.15,149.2,78.01,94,75,10.29,broken clouds,0.0,0.0
517,Jutai,BR,2020-02-23 18:37:33,-5.18,-68.9,82.02,88,95,0.74,moderate rain,0.0,0.0
518,Baghdad,IQ,2020-02-23 18:37:17,33.34,44.4,60.8,59,54,3.36,broken clouds,0.0,0.0
519,Ryotsu,JP,2020-02-23 18:37:34,38.08,138.43,35.6,74,40,2.24,scattered clouds,0.0,0.0
520,Jurado,CO,2020-02-23 18:37:34,7.11,-77.76,79.88,76,58,11.3,broken clouds,0.0,0.0
521,Lata,PT,2020-02-23 18:37:34,40.16,-8.33,64.99,52,0,2.24,clear sky,0.0,0.0
522,Santa Vitoria Do Palmar,BR,2020-02-23 18:37:35,-33.52,-53.37,71.78,59,66,4.61,broken clouds,0.0,0.0
523,Candido Mendes,BR,2020-02-23 18:37:35,-1.45,-45.72,81.7,87,85,3.76,light rain,0.0,0.0
524,Balikpapan,ID,2020-02-23 18:37:35,-1.27,116.83,78.8,94,20,4.7,few clouds,0.0,0.0
525,Nichinan,JP,2020-02-23 18:37:36,31.6,131.37,53.4,64,0,6.87,clear sky,0.0,0.0
526,Peterhead,GB,2020-02-23 18:36:46,57.51,-1.8,42.8,72,20,18.34,few clouds,0.0,0.0
527,Abha,SA,2020-02-23 18:37:36,18.22,42.51,66.2,39,76,6.93,broken clouds,0.0,0.0
528,Goderich,CA,2020-02-23 18:37:36,43.75,-81.72,41.0,66,59,13.0,broken clouds,0.0,0.0
529,Boguchany,RU,2020-02-23 18:37:36,58.38,97.45,10.22,96,38,3.06,scattered clouds,0.0,0.0
530,Sirur,IN,2020-02-23 18:37:37,18.83,74.38,77.0,25,0,8.61,clear sky,0.0,0.0
531,Vestnes,NO,2020-02-23 18:37:37,62.63,7.09,35.6,97,75,10.29,light intensity shower rain,0.0,0.0
532,Codrington,AU,2020-02-23 18:37:37,-38.27,141.97,62.11,87,99,14.76,overcast clouds,0.0,0.0
533,Naryan-Mar,RU,2020-02-23 18:37:37,67.67,53.09,29.91,83,99,29.26,overcast clouds,0.0,0.0
534,Anloga,GH,2020-02-23 18:37:38,5.79,0.9,86.0,84,20,12.75,few clouds,0.0,0.0
535,Umba,RU,2020-02-23 18:37:38,66.69,34.34,31.75,98,100,9.35,light snow,0.0,1.5
536,Port Hedland,AU,2020-02-23 18:37:42,-20.32,118.57,80.6,83,81,9.17,broken clouds,0.0,0.0
537,Sterling,US,2020-02-23 18:37:42,39.01,-77.43,57.99,19,1,8.05,clear sky,0.0,0.0
538,Walvis Bay,NA,2020-02-23 18:35:46,-22.96,14.51,64.4,82,30,6.93,scattered clouds,0.0,0.0
539,Port Hardy,CA,2020-02-23 18:37:43,50.7,-127.42,41.0,86,75,24.16,light intensity shower rain,0.0,0.0
540,Tirano,IT,2020-02-23 18:37:43,46.22,10.17,52.0,76,13,10.29,few clouds,0.0,0.0
541,Auki,SB,2020-02-23 18:37:44,-8.77,160.7,82.81,79,5,7.23,light rain,0.0,0.0
542,Morristown,US,2020-02-23 18:37:44,36.21,-83.29,53.01,43,20,6.8,few clouds,0.0,0.0
543,Coquimbo,CL,2020-02-23 18:37:44,-29.95,-71.34,68.0,64,37,12.75,scattered clouds,0.0,0.0
544,Victor Harbor,AU,2020-02-23 18:37:45,-35.57,138.62,73.0,46,98,3.36,overcast clouds,0.0,0.0
545,Aykhal,RU,2020-02-23 18:37:45,66.0,111.5,3.2,84,100,4.47,overcast clouds,0.0,0.0
546,Bonthe,SL,2020-02-23 18:37:45,7.53,-12.51,84.92,69,19,13.18,few clouds,0.0,0.0
547,Novikovo,RU,2020-02-23 18:37:46,51.15,37.89,32.56,98,100,13.94,snow,0.0,3.5
548,Ustikolina,BA,2020-02-23 18:37:46,43.58,18.79,44.6,75,84,5.82,broken clouds,0.0,0.0
549,Terrell,US,2020-02-23 18:37:47,32.74,-96.28,57.99,81,90,8.05,overcast clouds,0.0,0.0
550,Inirida,CO,2020-02-23 18:37:47,3.87,-67.92,82.89,89,85,4.65,moderate rain,0.0,0.0
551,Kirakira,SB,2020-02-23 18:37:47,-10.45,161.92,77.22,88,1,6.15,clear sky,0.0,0.0
552,Kavaratti,IN,2020-02-23 18:37:47,10.57,72.64,82.09,73,94,5.03,overcast clouds,0.0,0.0
553,Mujiayingzi,CN,2020-02-23 18:37:48,42.12,118.78,27.01,65,69,1.68,broken clouds,0.0,0.0
554,Richards Bay,ZA,2020-02-23 18:33:40,-28.78,32.04,74.25,66,44,24.2,light rain,0.0,0.0
555,Tautira,PF,2020-02-23 18:37:48,-17.73,-149.15,84.2,70,20,2.24,few clouds,0.0,0.0
556,Rawson,AR,2020-02-23 18:37:50,-43.3,-65.1,61.97,80,0,18.25,clear sky,0.0,0.0
557,Hailey,US,2020-02-23 18:37:52,43.52,-114.32,37.0,78,5,3.69,clear sky,0.0,0.0
558,Husavik,IS,2020-02-23 18:37:53,66.04,-17.34,24.62,63,1,6.91,clear sky,0.0,0.0
559,Qazvin,IR,2020-02-23 18:36:02,36.28,50.0,44.6,75,20,6.29,few clouds,0.0,0.0
560,Harper,LR,2020-02-23 18:37:53,4.38,-7.72,81.03,87,98,6.22,light rain,0.0,0.0
561,Umm Lajj,SA,2020-02-23 18:37:53,25.02,37.27,64.33,51,100,7.27,overcast clouds,0.0,0.0
562,Alekseyevsk,RU,2020-02-23 18:37:54,57.84,108.35,13.05,96,97,4.83,light snow,0.0,0.19
563,Muros,ES,2020-02-23 18:37:54,42.78,-9.06,59.0,76,0,4.7,clear sky,0.0,0.0
564,La Asuncion,VE,2020-02-23 18:37:54,11.03,-63.86,95.0,44,33,17.22,scattered clouds,0.0,0.0
565,Conner,PH,2020-02-23 18:37:54,17.8,121.33,67.32,97,91,1.57,light rain,0.0,0.0
566,Pichayevo,RU,2020-02-23 18:37:55,53.24,42.2,32.52,97,100,12.33,light snow,0.0,0.44
567,Ulaangom,MN,2020-02-23 18:37:55,49.98,92.07,7.3,92,100,1.21,light snow,0.0,0.13
568,Kovur,IN,2020-02-23 18:37:55,14.48,79.98,74.14,84,89,6.58,overcast clouds,0.0,0.0
569,Monrovia,LR,2020-02-23 18:37:55,6.3,-10.8,84.16,77,100,12.91,overcast clouds,0.0,0.0
570,Pedregulho,BR,2020-02-23 18:37:56,-20.26,-47.48,77.31,78,97,5.46,light rain,0.0,0.0
571,Ommen,NL,2020-02-23 18:37:56,52.53,6.5,45.0,81,75,14.99,light rain,0.0,0.0
572,Krasavino,RU,2020-02-23 18:37:56,60.96,46.48,29.46,93,100,15.17,light snow,0.0,0.87
573,Weiser,US,2020-02-23 18:37:57,44.25,-116.97,42.01,64,75,9.24,broken clouds,0.0,0.0
574,Fujin,CN,2020-02-23 18:37:57,47.26,132.03,14.7,89,100,3.22,overcast clouds,0.0,0.0
575,Liman,UA,2020-02-23 18:37:57,48.99,37.8,37.4,96,100,20.96,light rain,0.0,0.0
576,Caravelas,BR,2020-02-23 18:37:57,-17.71,-39.25,78.6,89,99,15.14,light rain,0.0,0.0
577,Sinnamary,GF,2020-02-23 18:37:58,5.38,-52.95,79.25,82,58,15.9,light rain,0.0,0.0
578,Umuarama,BR,2020-02-23 18:34:46,-23.77,-53.33,76.62,71,96,4.7,overcast clouds,0.0,0.0
579,Ouango,CF,2020-02-23 18:37:58,4.31,22.56,89.98,16,95,6.38,overcast clouds,0.0,0.0
